{"type":"FeatureCollection","features":[{"type":"Feature","id":0,"geometry":{"type":"Point","coordinates":[120.813242,23.508208]},"properties":{"FID":0,"站號":"467530","站名":"阿里山","海拔高":"2413.4","經度":"120.813242","緯度":"23.508208","城市":"嘉義縣","地址":"阿里山鄉中正村4鄰東阿里山73-1號","資料起":"1933/04/01","撤站日":" ","備註":" ","原站號":" ","新站號":" "}},{"type":"Feature","id":1,"geometry":{"type":"Point","coordinates":[120.58201699999999,23.324361]},"properties":{"FID":1,"站號":"C0M410","站名":"馬頭山","海拔高":"245.0","經度":"120.582017","緯度":"23.324361","城市":"嘉義縣","地址":"大埔鄉永樂村1鄰內灣仔2號","資料起":"1988/12/01","撤站日":" ","備註":"本站於2013/3/21 進行儀器汰換，並於2013/8/1完成驗收。","原站號":" ","新站號":" "}},{"type":"Feature","id":2,"geometry":{"type":"Point","coordinates":[120.248065,23.369907999999999]},"properties":{"FID":2,"站號":"C0M520","站名":"東後寮","海拔高":"15.0","經度":"120.248065","緯度":"23.369908","城市":"嘉義縣","地址":"義竹鄉東光村7號(台糖東後寮農場)","資料起":"2015/07/03","撤站日":" ","備註":"原(C1M520)站因擴充為氣象站，於2015/7/1升級為(C0M520)站。","原站號":"C1M520","新站號":" "}},{"type":"Feature","id":3,"geometry":{"type":"Point","coordinates":[120.699253,23.493903]},"properties":{"FID":3,"站號":"C0M530","站名":"奮起湖","海拔高":"1385.0","經度":"120.699253","緯度":"23.493903","城市":"嘉義縣","地址":"竹崎鄉阿里山事業區148林班地(中興苗圃內)","資料起":"1993/03/01","撤站日":" ","備註":"本站於2015/7/7起進行儀器汰換，並於2015/12/31完成驗收。","原站號":" ","新站號":" "}},{"type":"Feature","id":4,"geometry":{"type":"Point","coordinates":[120.52290000000001,23.425380000000001]},"properties":{"FID":4,"站號":"C0M640","站名":"中埔","海拔高":"155.0","經度":"120.522900","緯度":"23.425380","城市":"嘉義縣","地址":"中埔鄉中埔村128號(中埔鄉公所)","資料起":"2015/07/03","撤站日":" ","備註":" ","原站號":" ","新站號":" "}},{"type":"Feature","id":5,"geometry":{"type":"Point","coordinates":[120.23902,23.434629999999999]},"properties":{"FID":5,"站號":"C0M650","站名":"朴子","海拔高":"20.0","經度":"120.239020","緯度":"23.434630","城市":"嘉義縣","地址":"朴子市竹村里36號(竹村國小)","資料起":"2015/07/03","撤站日":" ","備註":" ","原站號":" ","新站號":" "}},{"type":"Feature","id":6,"geometry":{"type":"Point","coordinates":[120.403569,23.604130999999999]},"properties":{"FID":6,"站號":"C0M660","站名":"溪口","海拔高":"40.0","經度":"120.403569","緯度":"23.604131","城市":"嘉義縣","地址":"溪口鄉中正東路103號(溪口國中學生活動中心)","資料起":"2015/07/03","撤站日":" ","備註":" ","原站號":" ","新站號":" "}},{"type":"Feature","id":7,"geometry":{"type":"Point","coordinates":[120.45841,23.600615999999999]},"properties":{"FID":7,"站號":"C0M670","站名":"大林","海拔高":"43.0","經度":"120.458410","緯度":"23.600616","城市":"嘉義縣","地址":"大林鎮新興街110號(大林地政事務所)","資料起":"2015/07/03","撤站日":" ","備註":" ","原站號":" ","新站號":" "}},{"type":"Feature","id":8,"geometry":{"type":"Point","coordinates":[120.33145500000001,23.455062000000002]},"properties":{"FID":8,"站號":"C0M680","站名":"太保","海拔高":"37.0","經度":"120.331455","緯度":"23.455062","城市":"嘉義縣","地址":"太保市太保里31號(太保市圖書館)","資料起":"2015/07/03","撤站日":" ","備註":" ","原站號":" ","新站號":" "}},{"type":"Feature","id":9,"geometry":{"type":"Point","coordinates":[120.388909,23.419733999999998]},"properties":{"FID":9,"站號":"C0M690","站名":"水上","海拔高":"33.0","經度":"120.388909","緯度":"23.419734","城市":"嘉義縣","地址":"水上鄉三鎮村三鎮路119號(水上消防分隊)","資料起":"2015/07/03","撤站日":" ","備註":" ","原站號":" ","新站號":" "}},{"type":"Feature","id":10,"geometry":{"type":"Point","coordinates":[120.555508,23.526178000000002]},"properties":{"FID":10,"站號":"C0M700","站名":"竹崎","海拔高":"150.0","經度":"120.555508","緯度":"23.526178","城市":"嘉義縣","地址":"竹崎鄉竹崎村舊車站79號(竹崎消防分隊)","資料起":"2015/07/03","撤站日":" ","備註":" ","原站號":" ","新站號":" "}},{"type":"Feature","id":11,"geometry":{"type":"Point","coordinates":[120.15385000000001,23.458926999999999]},"properties":{"FID":11,"站號":"C0M710","站名":"東石","海拔高":"15.0","經度":"120.153850","緯度":"23.458927","城市":"嘉義縣","地址":"東石鄉東石村3號(東石鄉公所)","資料起":"2015/07/03","撤站日":" ","備註":" ","原站號":" ","新站號":" "}},{"type":"Feature","id":12,"geometry":{"type":"Point","coordinates":[120.55415600000001,23.464656999999999]},"properties":{"FID":12,"站號":"C0M720","站名":"番路","海拔高":"225.0","經度":"120.554156","緯度":"23.464657","城市":"嘉義縣","地址":"番路鄉下坑村蔡公店101號(番路鄉公所)","資料起":"2015/07/03","撤站日":" ","備註":" ","原站號":" ","新站號":" "}},{"type":"Feature","id":13,"geometry":{"type":"Point","coordinates":[120.29062500000001,23.492871000000001]},"properties":{"FID":13,"站號":"C0M740","站名":"六腳","海拔高":"15.0","經度":"120.290625","緯度":"23.492871","城市":"嘉義縣","地址":"六腳鄉蒜頭村73-2號(六腳消防分隊)","資料起":"2015/07/03","撤站日":" ","備註":" ","原站號":" ","新站號":" "}},{"type":"Feature","id":14,"geometry":{"type":"Point","coordinates":[120.167789,23.380877999999999]},"properties":{"FID":14,"站號":"C0M750","站名":"布袋","海拔高":"10.0","經度":"120.167789","緯度":"23.380878","城市":"嘉義縣","地址":"布袋鎮龍江里2-2號(布袋消防分隊)","資料起":"2015/07/03","撤站日":" ","備註":" ","原站號":" ","新站號":" "}},{"type":"Feature","id":15,"geometry":{"type":"Point","coordinates":[120.42845699999999,23.551753999999999]},"properties":{"FID":15,"站號":"C0M760","站名":"民雄","海拔高":"40.0","經度":"120.428457","緯度":"23.551754","城市":"嘉義縣","地址":"民雄鄉文化路7號(民雄鄉公所)","資料起":"2015/07/03","撤站日":" ","備註":" ","原站號":" ","新站號":" "}},{"type":"Feature","id":16,"geometry":{"type":"Point","coordinates":[120.555587,23.585398000000001]},"properties":{"FID":16,"站號":"C0M770","站名":"嘉義梅山","海拔高":"164.0","經度":"120.555587","緯度":"23.585398","城市":"嘉義縣","地址":"梅山鄉中山路282號(梅山鄉公所)","資料起":"2015/07/03","撤站日":" ","備註":" ","原站號":" ","新站號":" "}},{"type":"Feature","id":17,"geometry":{"type":"Point","coordinates":[120.30835,23.411339999999999]},"properties":{"FID":17,"站號":"C0M780","站名":"鹿草","海拔高":"30.0","經度":"120.308350","緯度":"23.411340","城市":"嘉義縣","地址":"鹿草鄉西井村287號(鹿草鄉公所)","資料起":"2015/07/03","撤站日":" ","備註":" ","原站號":" ","新站號":" "}},{"type":"Feature","id":18,"geometry":{"type":"Point","coordinates":[120.34572799999999,23.553269]},"properties":{"FID":18,"站號":"C0M790","站名":"新港","海拔高":"15.0","經度":"120.345728","緯度":"23.553269","城市":"嘉義縣","地址":"新港鄉公園路28號(新港消防分隊)","資料起":"2015/07/03","撤站日":" ","備註":" ","原站號":" ","新站號":" "}},{"type":"Feature","id":19,"geometry":{"type":"Point","coordinates":[120.664767,23.299074999999998]},"properties":{"FID":19,"站號":"C0M800","站名":"茶山","海拔高":"440.0","經度":"120.664767","緯度":"23.299075","城市":"嘉義縣","地址":"阿里山鄉茶山路62號之1(茶山村衛生室)","資料起":"2016/01/01","撤站日":" ","備註":" ","原站號":" ","新站號":" "}},{"type":"Feature","id":20,"geometry":{"type":"Point","coordinates":[120.71664699999999,23.389125]},"properties":{"FID":20,"站號":"C0M810","站名":"里佳","海拔高":"1354.0","經度":"120.716647","緯度":"23.389125","城市":"嘉義縣","地址":"阿里山鄉里佳村","資料起":"2016/01/01","撤站日":" ","備註":" ","原站號":" ","新站號":" "}},{"type":"Feature","id":21,"geometry":{"type":"Point","coordinates":[120.749517,23.453994000000002]},"properties":{"FID":21,"站號":"C0M820","站名":"達邦","海拔高":"980.0","經度":"120.749517","緯度":"23.453994","城市":"嘉義縣","地址":"阿里山鄉達邦村21號(鄒族自然與文化中心)","資料起":"2016/01/01","撤站日":" ","備註":" ","原站號":" ","新站號":" "}},{"type":"Feature","id":22,"geometry":{"type":"Point","coordinates":[120.64166,23.241859999999999]},"properties":{"FID":22,"站號":"C0M850","站名":"表湖","海拔高":"695.0","經度":"120.641660","緯度":"23.241860","城市":"嘉義縣","地址":"大埔鄉溪頭段1地號","資料起":"2018/02/14","撤站日":" ","備註":" ","原站號":" ","新站號":" "}},{"type":"Feature","id":23,"geometry":{"type":"Point","coordinates":[120.654417,23.406728000000001]},"properties":{"FID":23,"站號":"C1M390","站名":"龍美","海拔高":"1090.0","經度":"120.654417","緯度":"23.406728","城市":"嘉義縣","地址":"番路鄉公興村隆美地區(舊地名為瀨頭)私人茶園內","資料起":"1988/12/01","撤站日":" ","備註":"本站於 2013/4/27 進行儀器汰換，並於2013/8/1完成驗收。","原站號":" ","新站號":" "}},{"type":"Feature","id":24,"geometry":{"type":"Point","coordinates":[120.576103,23.251927999999999]},"properties":{"FID":24,"站號":"C1M400","站名":"菜瓜坪","海拔高":"369.0","經度":"120.576103","緯度":"23.251928","城市":"嘉義縣","地址":"大埔鄉西興村","資料起":"1988/12/01","撤站日":" ","備註":"本站於 2013/4/18 進行儀器汰換，並於2013/8/1完成驗收。","原站號":" ","新站號":" "}},{"type":"Feature","id":25,"geometry":{"type":"Point","coordinates":[120.60779700000001,23.537022]},"properties":{"FID":25,"站號":"C1M480","站名":"獨立山","海拔高":"840.0","經度":"120.607797","緯度":"23.537022","城市":"嘉義縣","地址":"竹崎鄉(獨立山三角點旁)","資料起":"1993/03/01","撤站日":" ","備註":"原名為樟腦寮，於2015/7/15更名為獨立山。本站於2015/7/13起進行儀器汰換，並\uFFFF","原站號":" ","新站號":" "}},{"type":"Feature","id":26,"geometry":{"type":"Point","coordinates":[120.60333900000001,23.406364]},"properties":{"FID":26,"站號":"C1M600","站名":"頭凍","海拔高":"986.0","經度":"120.603339","緯度":"23.406364","城市":"嘉義縣","地址":"番路鄉阿里山公路23k處轉入興社產業道路盡頭","資料起":"2002/08/01","撤站日":" ","備註":"本站於2015/7/2起進行儀器汰換，並於2015/12/31完成驗收。","原站號":" ","新站號":" "}},{"type":"Feature","id":27,"geometry":{"type":"Point","coordinates":[120.663506,23.496606]},"properties":{"FID":27,"站號":"C1M610","站名":"石磐龍","海拔高":"1083.0","經度":"120.663506","緯度":"23.496606","城市":"嘉義縣","地址":"竹崎鄉光華村","資料起":"2002/08/01","撤站日":" ","備註":"本站於2015/6/11起進行儀器汰換，並於2015/12/31完成驗收。","原站號":" ","新站號":" "}},{"type":"Feature","id":28,"geometry":{"type":"Point","coordinates":[120.675197,23.545133]},"properties":{"FID":28,"站號":"C1M620","站名":"瑞里","海拔高":"1252.0","經度":"120.675197","緯度":"23.545133","城市":"嘉義縣","地址":"梅山鄉瑞里派出所旁小路至站址(公墓旁)車程約10分鐘","資料起":"2002/08/01","撤站日":" ","備註":"本站於2015/7/6起進行儀器汰換，並於2015/12/31完成驗收。","原站號":" ","新站號":" "}},{"type":"Feature","id":29,"geometry":{"type":"Point","coordinates":[120.432906,23.495925]},"properties":{"FID":29,"站號":"467480","站名":"嘉義","海拔高":"26.9","經度":"120.432906","緯度":"23.495925","城市":"嘉義市","地址":"西區北新里海口寮路56號","資料起":"1968/09/01","撤站日":" ","備註":" ","原站號":" ","新站號":" "}},{"type":"Feature","id":30,"geometry":{"type":"Point","coordinates":[120.460531,23.457673]},"properties":{"FID":30,"站號":"C0M730","站名":"嘉義市東區","海拔高":"40.0","經度":"120.460531","緯度":"23.457673","城市":"嘉義市","地址":"親水路123 號(第五河川局水情中心)","資料起":"2015/07/03","撤站日":" ","備註":" ","原站號":" ","新站號":" "}},{"type":"Feature","id":31,"geometry":{"type":"Point","coordinates":[120.20477200000001,22.993238999999999]},"properties":{"FID":31,"站號":"467410","站名":"臺南","海拔高":"40.8","經度":"120.204772","緯度":"22.993239","城市":"臺南市","地址":"中西區公園路21號","資料起":"1897/01/01","撤站日":" ","備註":"1998/05停止觀測，2002/01恢復觀測。2002年至2006年氣候年報之風速儀地上高度應","原站號":" ","新站號":" "}},{"type":"Feature","id":32,"geometry":{"type":"Point","coordinates":[120.2367,23.038385999999999]},"properties":{"FID":32,"站號":"467420","站名":"永康","海拔高":"8.1","經度":"120.236700","緯度":"23.038386","城市":"臺南市","地址":"永康區鹽行里正南五街520巷88號","資料起":"1947/06/01","撤站日":" ","備註":" ","原站號":" ","新站號":" "}},{"type":"Feature","id":33,"geometry":{"type":"Point","coordinates":[120.497328,23.219681000000001]},"properties":{"FID":33,"站號":"C0O810","站名":"曾文","海拔高":"161.0","經度":"120.497328","緯度":"23.219681","城市":"臺南市","地址":"楠西區曾文新村(曾文水庫管理局內)","資料起":"1988/12/01","撤站日":" ","備註":" ","原站號":" ","新站號":" "}},{"type":"Feature","id":34,"geometry":{"type":"Point","coordinates":[120.495008,23.079561000000002]},"properties":{"FID":34,"站號":"C0O830","站名":"北寮","海拔高":"127.0","經度":"120.495008","緯度":"23.079561","城市":"臺南市","地址":"南化區北寮里48-4號","資料起":"2013/04/18","撤站日":" ","備註":"原(C1O830)站因擴充為氣象站，於2013/4/18升級為(C0O830)站。","原站號":"C1O830","新站號":" "}},{"type":"Feature","id":35,"geometry":{"type":"Point","coordinates":[120.40085000000001,23.222064]},"properties":{"FID":35,"站號":"C0O840","站名":"王爺宮","海拔高":"134.0","經度":"120.400850","緯度":"23.222064","城市":"臺南市","地址":"六甲區王爺里24號（六甲國小湖東分校）","資料起":"2013/12/01","撤站日":" ","備註":"原(C1O840)站因觀測條件不佳及擴充為氣象站，於2013/12/1升級為(C0O840)站。","原站號":"C1O840","新站號":" "}},{"type":"Feature","id":36,"geometry":{"type":"Point","coordinates":[120.36083000000001,23.118849999999998]},"properties":{"FID":36,"站號":"C0O860","站名":"大內","海拔高":"38.0","經度":"120.360830","緯度":"23.118850","城市":"臺南市","地址":"大內區74201大內里63號(大內國民小學)","資料起":"2013/08/01","撤站日":" ","備註":"原(C1O860)站因擴充為氣象站，於2013/8/1升級為(C0O860)站。","原站號":"C1O860","新站號":" "}},{"type":"Feature","id":37,"geometry":{"type":"Point","coordinates":[120.297219,23.112883]},"properties":{"FID":37,"站號":"C0O900","站名":"善化","海拔高":"9.0","經度":"120.297219","緯度":"23.112883","城市":"臺南市","地址":"善化區益民寮60號(亞洲蔬菜研究發展中心內)","資料起":"1988/12/01","撤站日":" ","備註":"本站於 2013/5/11 進行儀器汰換，並於2013/8/1完成驗收。","原站號":" ","新站號":" "}},{"type":"Feature","id":38,"geometry":{"type":"Point","coordinates":[120.46055,23.126042000000002]},"properties":{"FID":38,"站號":"C0O930","站名":"玉井","海拔高":"69.0","經度":"120.460550","緯度":"23.126042","城市":"臺南市","地址":"玉井區台灣糖業公司玉井糖廠","資料起":"1988/12/01","撤站日":" ","備註":" ","原站號":" ","新站號":" "}},{"type":"Feature","id":39,"geometry":{"type":"Point","coordinates":[120.14486100000001,23.076694]},"properties":{"FID":39,"站號":"C0O950","站名":"安南","海拔高":"4.0","經度":"120.144861","緯度":"23.076694","城市":"臺南市","地址":"安南區公學路6段589號(學東國民小學內)","資料起":"2013/08/01","撤站日":" ","備註":"原(C1O950)站因擴充為氣象站，於2013/8/1升級為(C0O950)站。","原站號":"C1O950","新站號":" "}},{"type":"Feature","id":40,"geometry":{"type":"Point","coordinates":[120.369317,22.959547000000001]},"properties":{"FID":40,"站號":"C0O960","站名":"崎頂","海拔高":"112.0","經度":"120.369317","緯度":"22.959547","城市":"臺南市","地址":"龍崎區中坑里5鄰13號","資料起":"2013/04/18","撤站日":" ","備註":"原(C1O960)站因擴充為氣象站，於2013/4/18升級為(C0O960)站。","原站號":"C1O960","新站號":" "}},{"type":"Feature","id":41,"geometry":{"type":"Point","coordinates":[120.34787799999999,23.021374999999999]},"properties":{"FID":41,"站號":"C0O970","站名":"虎頭埤","海拔高":"71.0","經度":"120.347878","緯度":"23.021375","城市":"臺南市","地址":"新化區口埤18號(新化分場)","資料起":"2013/08/01","撤站日":" ","備註":"原(C1O970)站因擴充為氣象站，於2013/8/1升級為(C0O970)站。","原站號":"C1O970","新站號":" "}},{"type":"Feature","id":42,"geometry":{"type":"Point","coordinates":[120.298197,23.061613999999999]},"properties":{"FID":42,"站號":"C0O980","站名":"新市","海拔高":"18.0","經度":"120.298197","緯度":"23.061614","城市":"臺南市","地址":"新市區永就里53號(番子寮農場)","資料起":"2013/08/01","撤站日":" ","備註":"原(C1O980)站因擴充為氣象站，於2013/8/1升級為(C0O980)站。","原站號":"C1O980","新站號":" "}},{"type":"Feature","id":43,"geometry":{"type":"Point","coordinates":[120.293525,22.99175]},"properties":{"FID":43,"站號":"C0O990","站名":"媽廟","海拔高":"18.0","經度":"120.293525","緯度":"22.991750","城市":"臺南市","地址":"歸仁區中正北路3段60號(保西國民小學內)","資料起":"2013/12/01","撤站日":" ","備註":"原(C1O990)站因擴充為氣象站，於2013/12/1升級為(C0O990)站。","原站號":"C1O990","新站號":" "}},{"type":"Feature","id":44,"geometry":{"type":"Point","coordinates":[120.385608,23.296597999999999]},"properties":{"FID":44,"站號":"C0X050","站名":"東河","海拔高":"25.0","經度":"120.385608","緯度":"23.296598","城市":"臺南市","地址":"東山區東河里54號(東河水利工作站)","資料起":"2015/07/03","撤站日":" ","備註":"原(C1X050)站因擴充為氣象站及移位，於2015/7/1升級為(C0X050)站。","原站號":"C1X050","新站號":" "}},{"type":"Feature","id":45,"geometry":{"type":"Point","coordinates":[120.25626099999999,23.226949999999999]},"properties":{"FID":45,"站號":"C0X060","站名":"下營","海拔高":"19.0","經度":"120.256261","緯度":"23.226950","城市":"臺南市","地址":"下營區仁里里下營國小附近","資料起":"2015/07/03","撤站日":" ","備註":"原(C1X060)站因擴充為氣象站，於2015/7/1升級為(C0X060)站。","原站號":"C1X060","新站號":" "}},{"type":"Feature","id":46,"geometry":{"type":"Point","coordinates":[120.14508600000001,23.173038999999999]},"properties":{"FID":46,"站號":"C0X080","站名":"佳里","海拔高":"2.0","經度":"120.145086","緯度":"23.173039","城市":"臺南市","地址":"佳里區西方之埔尾，近七股區之篤加","資料起":"1993/03/01","撤站日":" ","備註":"本站於2015/5/11起進行儀器汰換，並於2015/7/1完成驗收。","原站號":" ","新站號":" "}},{"type":"Feature","id":47,"geometry":{"type":"Point","coordinates":[120.194228,23.010394000000002]},"properties":{"FID":47,"站號":"C0X100","站名":"臺南市北區","海拔高":"10.0","經度":"120.194228","緯度":"23.010394","城市":"臺南市","地址":"北區文賢路678號(和緯消防分隊)","資料起":"2013/04/18","撤站日":" ","備註":" ","原站號":" ","新站號":" "}},{"type":"Feature","id":48,"geometry":{"type":"Point","coordinates":[120.188378,22.961189000000001]},"properties":{"FID":48,"站號":"C0X110","站名":"臺南市南區","海拔高":"20.0","經度":"120.188378","緯度":"22.961189","城市":"臺南市","地址":"南區明興路2號(南區區公所)","資料起":"2013/04/18","撤站日":" ","備註":" ","原站號":" ","新站號":" "}},{"type":"Feature","id":49,"geometry":{"type":"Point","coordinates":[120.248611,23.183288999999998]},"properties":{"FID":49,"站號":"C0X120","站名":"麻豆","海拔高":"28.0","經度":"120.248611","緯度":"23.183289","城市":"臺南市","地址":"麻豆區興國路9號(麻豆消防分隊5樓頂)","資料起":"2013/04/18","撤站日":" ","備註":" ","原站號":" ","新站號":" "}},{"type":"Feature","id":50,"geometry":{"type":"Point","coordinates":[120.315422,23.193217000000001]},"properties":{"FID":50,"站號":"C0X130","站名":"官田","海拔高":"27.0","經度":"120.315422","緯度":"23.193217","城市":"臺南市","地址":"官田區中山路一段132號(官田區公所)","資料起":"2013/04/18","撤站日":" ","備註":" ","原站號":" ","新站號":" "}},{"type":"Feature","id":51,"geometry":{"type":"Point","coordinates":[120.203108,23.125608]},"properties":{"FID":51,"站號":"C0X140","站名":"西港","海拔高":"17.0","經度":"120.203108","緯度":"23.125608","城市":"臺南市","地址":"西港區中山路450號(西港消防分隊4樓頂)","資料起":"2013/04/18","撤站日":" ","備註":" ","原站號":" ","新站號":" "}},{"type":"Feature","id":52,"geometry":{"type":"Point","coordinates":[120.227839,23.102613999999999]},"properties":{"FID":52,"站號":"C0X150","站名":"安定","海拔高":"18.0","經度":"120.227839","緯度":"23.102614","城市":"臺南市","地址":"安定區南安里33-11號(安定消防分隊)","資料起":"2013/04/18","撤站日":" ","備註":" ","原站號":" ","新站號":" "}},{"type":"Feature","id":53,"geometry":{"type":"Point","coordinates":[120.257689,22.968257999999999]},"properties":{"FID":53,"站號":"C0X160","站名":"仁德","海拔高":"26.0","經度":"120.257689","緯度":"22.968258","城市":"臺南市","地址":"仁德區仁義路432號(仁德消防分隊)","資料起":"2013/04/18","撤站日":" ","備註":" ","原站號":" ","新站號":" "}},{"type":"Feature","id":54,"geometry":{"type":"Point","coordinates":[120.327797,22.963017000000001]},"properties":{"FID":54,"站號":"C0X170","站名":"關廟","海拔高":"50.0","經度":"120.327797","緯度":"22.963017","城市":"臺南市","地址":"關廟區中正路998號(關廟區公所3樓頂)","資料起":"2013/08/01","撤站日":" ","備註":" ","原站號":" ","新站號":" "}},{"type":"Feature","id":55,"geometry":{"type":"Point","coordinates":[120.363253,23.075700000000001]},"properties":{"FID":55,"站號":"C0X180","站名":"山上","海拔高":"62.0","經度":"120.363253","緯度":"23.075700","城市":"臺南市","地址":"山上區豐德里隙子口5之1號(中油豐德供油中心2樓頂)","資料起":"2013/04/18","撤站日":" ","備註":" ","原站號":" ","新站號":" "}},{"type":"Feature","id":56,"geometry":{"type":"Point","coordinates":[120.152181,22.993161000000001]},"properties":{"FID":56,"站號":"C0X190","站名":"安平","海拔高":"10.0","經度":"120.152181","緯度":"22.993161","城市":"臺南市","地址":"安平區城平路2號(台江國家公園管理處)","資料起":"2013/04/18","撤站日":" ","備註":" ","原站號":" ","新站號":" "}},{"type":"Feature","id":57,"geometry":{"type":"Point","coordinates":[120.408522,23.056757999999999]},"properties":{"FID":57,"站號":"C0X200","站名":"左鎮","海拔高":"61.0","經度":"120.408522","緯度":"23.056758","城市":"臺南市","地址":"左鎮區中正里171號之4(左鎮區公所)","資料起":"2013/04/18","撤站日":" ","備註":"2016/10/18因公所施工暫時無法提供資料，2017/1/24完工。","原站號":" ","新站號":" "}},{"type":"Feature","id":58,"geometry":{"type":"Point","coordinates":[120.414427,23.347466000000001]},"properties":{"FID":58,"站號":"C0X210","站名":"白河","海拔高":"38.0","經度":"120.414427","緯度":"23.347466","城市":"臺南市","地址":"白河區中山路6號(白河消防分隊)","資料起":"2015/07/03","撤站日":" ","備註":" ","原站號":" ","新站號":" "}},{"type":"Feature","id":59,"geometry":{"type":"Point","coordinates":[120.182187,23.230367000000001]},"properties":{"FID":59,"站號":"C0X220","站名":"學甲","海拔高":"26.0","經度":"120.182187","緯度":"23.230367","城市":"臺南市","地址":"學甲區華宗路313號(學甲區公所)","資料起":"2015/07/03","撤站日":" ","備註":" ","原站號":" ","新站號":" "}},{"type":"Feature","id":60,"geometry":{"type":"Point","coordinates":[120.247641,23.272621000000001]},"properties":{"FID":60,"站號":"C0X230","站名":"鹽水","海拔高":"29.0","經度":"120.247641","緯度":"23.272621","城市":"臺南市","地址":"鹽水區竹埔里1號(竹埔派出所)","資料起":"2015/07/03","撤站日":" ","備註":" ","原站號":" ","新站號":" "}},{"type":"Feature","id":61,"geometry":{"type":"Point","coordinates":[120.508025,23.331168999999999]},"properties":{"FID":61,"站號":"C0X240","站名":"關子嶺","海拔高":"394.0","經度":"120.508025","緯度":"23.331169","城市":"臺南市","地址":"白河區關嶺里94-3號(仙草國小關嶺分校)","資料起":"2015/07/03","撤站日":" ","備註":"於2015/12/8短距離移位。本站於2015/11/23起進行儀器汰換，並於2015/12/8完成驗收","原站號":" ","新站號":" "}},{"type":"Feature","id":62,"geometry":{"type":"Point","coordinates":[120.316681,23.310689]},"properties":{"FID":62,"站號":"C0X250","站名":"新營","海拔高":"33.0","經度":"120.316681","緯度":"23.310689","城市":"臺南市","地址":"新營區中正路30號(南瀛親子館)","資料起":"2015/07/03","撤站日":" ","備註":" ","原站號":" ","新站號":" "}},{"type":"Feature","id":63,"geometry":{"type":"Point","coordinates":[120.362326,23.366358000000002]},"properties":{"FID":63,"站號":"C0X260","站名":"後壁","海拔高":"39.0","經度":"120.362326","緯度":"23.366358","城市":"臺南市","地址":"後壁區後壁里129號(後壁圖書館)","資料起":"2015/07/03","撤站日":" ","備註":" ","原站號":" ","新站號":" "}},{"type":"Feature","id":64,"geometry":{"type":"Point","coordinates":[120.13576999999999,23.214998999999999]},"properties":{"FID":64,"站號":"C0X280","站名":"將軍","海拔高":"22.0","經度":"120.135770","緯度":"23.214999","城市":"臺南市","地址":"將軍區將貴里58號(將軍國小)","資料起":"2015/07/03","撤站日":" ","備註":" ","原站號":" ","新站號":" "}},{"type":"Feature","id":65,"geometry":{"type":"Point","coordinates":[120.12548099999999,23.267772000000001]},"properties":{"FID":65,"站號":"C0X290","站名":"北門","海拔高":"10.0","經度":"120.125481","緯度":"23.267772","城市":"臺南市","地址":"北門區北門里舊埕108號(北門區公所)","資料起":"2016/01/01","撤站日":" ","備註":" ","原站號":" ","新站號":" "}},{"type":"Feature","id":66,"geometry":{"type":"Point","coordinates":[120.47733100000001,23.386047000000001]},"properties":{"FID":66,"站號":"C0X300","站名":"鹿寮","海拔高":"70.0","經度":"120.477331","緯度":"23.386047","城市":"臺南市","地址":"白河區崎內里12號(鹿寮水庫)","資料起":"2016/01/01","撤站日":" ","備註":" ","原站號":" ","新站號":" "}},{"type":"Feature","id":67,"geometry":{"type":"Point","coordinates":[120.086253,23.147289000000001]},"properties":{"FID":67,"站號":"C0X310","站名":"七股","海拔高":"9.0","經度":"120.086253","緯度":"23.147289","城市":"臺南市","地址":"七股區鹽埕237-11號(氣象局七股雷達站區內)","資料起":"2016/02/01","撤站日":" ","備註":" ","原站號":" ","新站號":" "}},{"type":"Feature","id":68,"geometry":{"type":"Point","coordinates":[120.309406,22.935472000000001]},"properties":{"FID":68,"站號":"C1N001","站名":"沙崙","海拔高":"24.0","經度":"120.309406","緯度":"22.935472","城市":"臺南市","地址":"歸仁區沙崙里184號北沙崙農場","資料起":"2013/08/01","撤站日":" ","備註":"原(C1N000)站因儀器汰換，於2013/8/1更變為(C1N001)站。","原站號":"C1N000","新站號":" "}},{"type":"Feature","id":69,"geometry":{"type":"Point","coordinates":[120.418633,23.148617000000002]},"properties":{"FID":69,"站號":"C1O850","站名":"環湖","海拔高":"44.0","經度":"120.418633","緯度":"23.148617","城市":"臺南市","地址":"大內區頭社里10號(大內國小鳴頭分校內)","資料起":"1988/12/01","撤站日":" ","備註":"本站於 2013/4/26 進行儀器汰換，並於2013/8/1完成驗收。","原站號":" ","新站號":" "}},{"type":"Feature","id":70,"geometry":{"type":"Point","coordinates":[120.52226,23.31157]},"properties":{"FID":70,"站號":"C1O870","站名":"大棟山","海拔高":"1249.0","經度":"120.522260","緯度":"23.311570","城市":"臺南市","地址":"白河區大棟山三角點","資料起":"1988/12/01","撤站日":" ","備註":" ","原站號":" ","新站號":" "}},{"type":"Feature","id":71,"geometry":{"type":"Point","coordinates":[120.594092,23.173397000000001]},"properties":{"FID":71,"站號":"C1O880","站名":"關山","海拔高":"223.0","經度":"120.594092","緯度":"23.173397","城市":"臺南市","地址":"南化區關山里西阿里關83號(瑞峰國小附近)","資料起":"1988/12/01","撤站日":" ","備註":"本站於 2013/4/16 進行儀器汰換，並於2013/8/1完成驗收。","原站號":" ","新站號":" "}},{"type":"Feature","id":72,"geometry":{"type":"Point","coordinates":[120.484083,23.183510999999999]},"properties":{"FID":72,"站號":"C1O921","站名":"楠西","海拔高":"115.0","經度":"120.484083","緯度":"23.183511","城市":"臺南市","地址":"楠西區中興路107號(楠西國民中學內)","資料起":"2013/04/18","撤站日":" ","備註":"原(C1O920)站因儀器汰換，於2013/4/18更變為(C1O921)站。","原站號":"C1O920","新站號":" "}},{"type":"Feature","id":73,"geometry":{"type":"Point","coordinates":[120.46382199999999,23.291596999999999]},"properties":{"FID":73,"站號":"C1X040","站名":"東原","海拔高":"232.0","經度":"120.463822","緯度":"23.291597","城市":"臺南市","地址":"東山區高原里4鄰31號後方果園","資料起":"1993/03/01","撤站日":" ","備註":"本站於2015/6/30起進行儀器汰換，並於2015/12/31完成驗收。","原站號":" ","新站號":" "}}]}